region,site ID,Site name,Most recent survey year,latitude,longitude,category
Seram Bagian Timur,KOE09,,2016,-3.90726,131.08467,Inside MPA
Seram Bagian Timur,KOE06,,2016,-3.90678,131.12459,Inside MPA
Maluku Tengah,TSW0917,Pasanea,2017,-2.715160958,129.000479,Other
Maluku Tengah,TSW0817,Pasanea,2017,-2.737852028,128.970869,Other
Maluku Tengah,TSW1117,Pulau tolun,2017,-2.74080799,129.023468,Other
Maluku Tengah,TSW1017,Pulau Air,2017,-2.755929027,128.997722,Other
Maluku Tengah,TSW1217,Pulau Tolun,2017,-2.765343999,129.016114,Other
Maluku Tengah,TSW1317,Pulau 7,2017,-2.779412018,129.064202,Other
Maluku Tengah,TSW3317,Malaku,2017,-2.786750039,129.390738,Other
Maluku Tengah,TSW3417,Parigi,2017,-2.787650004,129.423285,Other
Maluku Tengah,TSW0717,Pulau Tenggelam,2017,-2.798974039,129.00908,Other
Maluku Tengah,TSW3117,Rumah Sokat,2017,-2.803510996,129.363826,Other
Maluku Tengah,TSW1517,Paa,2017,-2.822349994,129.070646,Other
Maluku Tengah,TSW0617,Lisabata Timur,2017,-2.829388026,128.978093,Other
Maluku Tengah,TSW0117,Walakone,2017,-2.853240995,128.73873,Other
Maluku Tengah,TSW1417,Karlutukara,2017,-2.858337024,129.075969,Other
Maluku Tengah,TSW0317,Walakone,2017,-2.865740005,128.818003,Other
Maluku Tengah,TSW1617,Paa,2017,-2.89047299,129.081194,Other
Maluku Tengah,TSW2217,Pulau Raja,2017,-2.903094962,129.170861,Other
Maluku Tengah,TSW2417,Pulau Raja,2017,-2.903763,129.205084,Other
Maluku Tengah,TSW2517,Puputih,2017,-2.904345961,129.225675,Other
Maluku Tengah,TSW3217,Saka,2017,-2.920863004,129.084027,Other
Maluku Tengah,TSW2117,Teluk Sawai,2017,-2.924896041,129.173477,Other
Maluku Tengah,TSW2317,Pulau Raja,2017,-2.925899019,129.20481,Other
Maluku Tengah,TSW2017,Teluk Sawai,2017,-2.92754598,129.158179,Other
Maluku Tengah,TSW1817,Saleman,2017,-2.944441969,129.09899,Other
Maluku Tengah,TSW1917,Pantai Ora,2017,-2.952877013,129.143806,Other
Sulawesi Tenggara,STR39,Langgikima,2016,-3.375933333,122.34325,Outside MPA
Sulawesi Tenggara,STR37,Langgikima,2016,-3.379516667,122.37255,Outside MPA
Sulawesi Tenggara,STR38,Teluk Dalam,2016,-3.38566,122.29378,Outside MPA
Sulawesi Tenggara,STR40,Teluk Dalam,2016,-3.3874,122.29412,Outside MPA
Sulawesi Tenggara,STR36,Labengki,2016,-3.402766667,122.4214333,Inside MPA
Sulawesi Tenggara,STR35,Gosong Labengki,2016,-3.43764,122.49836,Inside MPA
Sulawesi Tenggara,STR41,Morombo,2016,-3.44831,122.2861,Outside MPA
Sulawesi Tenggara,STR34,P. Labengki Kecil,2016,-3.49455,122.48762,Inside MPA
Sulawesi Tenggara,STR32,Pulau Sisi,2016,-3.4977,122.31992,Inside MPA
Sulawesi Tenggara,STR33,P. Labengki Besar,2016,-3.50421,122.42982,Inside MPA
Sulawesi Tenggara,STR31,Pulau Bahulu,2016,-3.530333333,122.3221667,Inside MPA
Sulawesi Tenggara,STR28,Tapunggaya,2016,-3.569416667,122.2087833,Outside MPA
Sulawesi Tenggara,STR30,Pulau Bahulu,2016,-3.576616667,122.3691333,Inside MPA
Sulawesi Tenggara,STR29,Pulau Bahulu,2016,-3.57987,122.31093,Inside MPA
Sulawesi Tenggara,STR26,Pulau Karama,2016,-3.65797,122.26735,Inside MPA
Sulawesi Tenggara,STR25,Lemo bajo,2016,-3.7171,122.3427167,Inside MPA
Sulawesi Tenggara,STR24,Motui,2016,-3.791383333,122.4618667,Outside MPA
Seram Bagian Timur,KOE18,,2016,-3.849675,130.9443333,Outside MPA
Seram Bagian Timur,KOE17,,2016,-3.86535,130.9982833,Outside MPA
Sulawesi Tenggara,STR23,Waworaha,2016,-3.8923,122.57539,Outside MPA
Seram Bagian Timur,KOE16,,2016,-3.902483333,131.0344833,Outside MPA
Seram Bagian Timur,KOE14,,2016,-3.9056,131.1589833,Inside MPA
Sulawesi Tenggara,STR21,Pasi' jambe,2016,-3.90575,122.6876833,Outside MPA
Seram Bagian Timur,KOE10,,2016,-3.909,131.10567,Inside MPA
Seram Bagian Timur,KOE20,,2016,-3.909066667,130.92125,Outside MPA
Seram Bagian Timur,KOE15,,2016,-3.912533333,131.1734833,Inside MPA
Seram Bagian Timur,KOE21,,2016,-3.916444444,130.9757333,Outside MPA
Seram Bagian Timur,KOE01,,2016,-3.92035,131.2048333,Inside MPA
Seram Bagian Timur,KOE07,,2016,-3.926133333,131.093,Inside MPA
Seram Bagian Timur,KOE08,,2016,-3.92725,131.0778833,Inside MPA
Seram Bagian Timur,KOE02,,2016,-3.92825,131.21165,Inside MPA
Seram Bagian Timur,KOE03,,2016,-3.93135,131.1835167,Inside MPA
Seram Bagian Timur,KOE05,,2016,-3.938916667,131.1364,Inside MPA
Seram Bagian Timur,KOE11,,2016,-3.965383333,131.3728667,Outside MPA
Sulawesi Tenggara,STR22,Kasi Lampe,2016,-3.966766667,122.6313167,Outside MPA
Sulawesi Tenggara,STR20,Soropia,2016,-3.973266667,122.6751667,Outside MPA
Sulawesi Tenggara,STR10,Wawonii utara,2016,-3.97595,122.9754667,Outside MPA
Seram Bagian Timur,KOE23,,2016,-3.976383333,131.2018833,Outside MPA
Sulawesi Tenggara,STR12,Saponda Darat,2016,-3.97658,122.78239,Inside MPA
Seram Bagian Timur,KOE24,,2016,-3.989216667,131.2345167,Outside MPA
Seram Bagian Timur,KOE04,,2016,-3.99185,131.3705667,Outside MPA
Sulawesi Tenggara,STR08,Wawonii utara,2016,-4.009333333,123.1957333,Outside MPA
Sulawesi Tenggara,STR19,Bororo,2016,-4.01079,122.663,Outside MPA
Sulawesi Tenggara,STR09,Wawonii utara,2016,-4.01725,123.10295,Outside MPA
Sulawesi Tenggara,STR13,Pulau Hari,2016,-4.03675,122.77428,Inside MPA
Sulawesi Tenggara,STR14,Labuhan Meropa,2016,-4.05962,122.80231,Outside MPA
Sulawesi Tenggara,STR15,Labotaone,2016,-4.08962,122.77609,Inside MPA
Sulawesi Tenggara,STR18,Pulau Lara,2016,-4.10646,122.6689,Inside MPA
Sulawesi Tenggara,STR17,Wawosungguh,2016,-4.139683333,122.7389667,Inside MPA
Sulawesi Tenggara,STR03,Pulau Cempedak,2016,-4.14151,122.89934,Outside MPA
Sulawesi Tenggara,STR16,Tambolosu,2016,-4.14735,122.8075333,Inside MPA
Sulawesi Tenggara,STR07,Wawonii,2016,-4.15384,123.21806,Outside MPA
Sulawesi Tenggara,STR04,Wawonii Tengah,2016,-4.155333333,122.9573667,Outside MPA
Sulawesi Tenggara,STR05,Lampe Api Wawonii,2016,-4.23807,123.04727,Outside MPA
Sulawesi Tenggara,STR02,Tue-tue,2016,-4.240833333,122.9086667,Outside MPA
Sulawesi Tenggara,STR06,Nambo Wawonii,2016,-4.24148,123.15441,Outside MPA
Sulawesi Tenggara,STR01,Wiya-wiya,2016,-4.3191,122.8970667,Outside MPA
Wakatobi,5253,ZPL KrgKapota 3,2016,-5.268883333,123.63195,Inside MPA
Wakatobi,5251,ZPL KrgKapota 1,2016,-5.2795,123.64165,Inside MPA
Wakatobi,5254,ZPR KrgKapota 4,2016,-5.302366667,123.57115,Inside MPA
Wakatobi,5255,ZPL KrgKaledupa 1,2016,-5.339233333,123.64135,Inside MPA
Wakatobi,5293,ZPL Palahidu,2016,-5.3923,123.6752167,Inside MPA
Wakatobi,5294,ZPR KrgBante,2016,-5.393283333,123.6749667,Inside MPA
Maluku Tenggara,KE0210,Pulau Bair,2015,-5.44275,132.69649,Outside MPA
Maluku Tenggara,KE0510,Pulau Sua,2015,-5.46952,132.72852,Outside MPA
Wakatobi,5271,ZPB Darawa 1,2016,-5.475666667,123.3669833,Inside MPA
Wakatobi,5265,ZPB KrgGurita 1,2016,-5.493333333,123.8153833,Inside MPA
Wakatobi,5272,ZPL Kaledupa 1,2016,-5.507766667,123.3922833,Inside MPA
Maluku Tenggara,KE1410,Pulau Burung,2015,-5.51028,132.73558,Outside MPA
Maluku Tenggara,KE1310,Pulau Adranan,2015,-5.51331,132.74777,Outside MPA
Maluku Tenggara,KE0610,Pulau Yamru,2015,-5.51681,132.30627,Outside MPA
Wakatobi,5259,ZPL KrgKaledupa 5,2016,-5.520583333,123.87265,Inside MPA
Wakatobi,5260,ZPL KrgKaledupa 6,2016,-5.521033333,123.8444333,Inside MPA
Maluku Tenggara,KE1210,Pulau Dulahlaut,2015,-5.52939,132.68774,Outside MPA
Maluku Tenggara,KE0810,Pulau Ngodan,2015,-5.55373,132.58987,Outside MPA
Wakatobi,5273,ZPB Kaledupa 2,2016,-5.5585,123.4122333,Inside MPA
Maluku Tenggara,KE0710,Pulau Er,2015,-5.56562,132.55043,Outside MPA
Maluku Tenggara,KE1010,Pulau Ut,2015,-5.574959,132.661974,Outside MPA
Maluku Tenggara,KE0410,Tayando Yamtil,2015,-5.57796,132.26756,Outside MPA
Maluku Tenggara,KE1110,Desa Dunwahan,2015,-5.58771,132.70177,Outside MPA
Wakatobi,5274,ZPL Darawa 2,2016,-5.59,123.47,Inside MPA
Maluku Tenggara,KE0910,Naeneer,2015,-5.60375,132.64415,Outside MPA
Maluku Tenggara,KE0310,Pulau Ree,2015,-5.60911,132.24992,Outside MPA
Wakatobi,5281,ZPL Koromaha 1,2016,-5.610716667,123.5217667,Inside MPA
Maluku Tenggara,KE1510,Ohoi Eu,2015,-5.61513,132.57829,Inside MPA
Wakatobi,5277,ZPR PSawa 1,2016,-5.61735,123.8818,Inside MPA
Wakatobi,5282,ZPL Koromaha 2,2016,-5.6189,123.5285333,Inside MPA
Maluku Tenggara,KE2510,Pulau Perek,2015,-5.6274,132.62518,Inside MPA
Maluku Tenggara,KE2010,Pasir Panjang,2015,-5.6678,132.63031,Inside MPA
Maluku Tenggara,KE1710,Pulau Ohoiew,2015,-5.68523,132.62971,Inside MPA
Maluku Tenggara,KE1610,Pulau Ngaf,2015,-5.69001,132.6292,Inside MPA
Maluku Tenggara,KE1810,Pulau Ohoiwa,2015,-5.69618,132.60901,Inside MPA
Wakatobi,5283,ZPR Koromaha 3,2016,-5.701316667,123.5798667,Inside MPA
Maluku Tenggara,KE2610,Pulau Nai,2015,-5.70268,132.54236,Inside MPA
Wakatobi,5284,ZPB Cowo-cowo,2016,-5.711933333,123.6041833,Inside MPA
Wakatobi,5268,ZPL Waetuno 1,2016,-5.728766667,123.8927333,Inside MPA
Maluku Tenggara,KE2710,Pulau Hoat,2015,-5.72885,132.54045,Inside MPA
Maluku Tenggara,KE1910,Pulau Ohoitir,2015,-5.73067,132.63452,Inside MPA
Wakatobi,5285,ZPB Kentiole,2016,-5.734916667,123.6207667,Inside MPA
Wakatobi,5275,ZPL SMA Tomia,2016,-5.734916667,123.6207667,Inside MPA
Wakatobi,5276,ZPR Onemobaa,2016,-5.7385,123.6277333,Inside MPA
Maluku Tenggara,KE2110,Pulau Warhu,2015,-5.74369,132.64746,Inside MPA
Maluku Tenggara,KE2810,Pulau Lea,2015,-5.75292,132.53893,Inside MPA
Wakatobi,5269,ZPB Matahora 2,2016,-5.7628,123.9250333,Inside MPA
Wakatobi,5270,ZPL Matahora 3,2016,-5.769366667,123.87005,Inside MPA
Maluku Tenggara,KE3110,Pulau Liek,2015,-5.78433,132.62668,Inside MPA
Maluku Tenggara,KE2910,Pulau Tangwain,2015,-5.79274,132.56638,Inside MPA
Maluku Tenggara,KE3210,Pulau Tarwa,2015,-5.79282,132.61177,Inside MPA
Maluku Tenggara,KE2310,Wab Ngufar,2015,-5.80351,132.68048,Inside MPA
Maluku Tenggara,KE3310,Pulau Warbal,2015,-5.81712,132.56323,Inside MPA
Wakatobi,5277,ZPR PSawa 1,2016,-5.824133333,123.6213833,Inside MPA
Maluku Tenggara,KE3510,Pulau Ur,2015,-5.83477,132.52519,Inside MPA
Wakatobi,5280,ZPL Ndaa 2,2016,-5.836983333,123.6385333,Inside MPA
Maluku Tenggara,KE2210,Somlain,2015,-5.8505,132.6694,Inside MPA
Maluku Tenggara,KE3410,Pulau Manir,2015,-5.85081,132.58861,Inside MPA
Maluku Tenggara,KE3610,Pulau Witir,2015,-5.88185,132.51547,Inside MPA
Wakatobi,5263,ZPB KrgKaledupa 7,2016,-5.902216667,123.69775,Inside MPA
Maluku Tenggara,KE3710,Pulau Witir,2015,-5.90398,132.5161,Inside MPA
Wakatobi,5278,ZPL PSawa 2,2016,-5.926783333,123.7375167,Inside MPA
Maluku Tenggara,KE2410,Pulau Ohoidertutu,2015,-5.93499,132.68681,Inside MPA
Maluku Tenggara,KE3910,Pulau Tanimbar Kei,2015,-5.98683,132.45638,Inside MPA
Maluku Tenggara,KE4010,Pulau Tanimbar Kei,2015,-5.9989,132.4285,Inside MPA
Maluku Tenggara Barat,MTB1716,Tanjung Adodo,2017,-6.68391,131.56027,Inside MPA
Maluku Tenggara Barat,MTB1718,Tanjung Pulau Maru,2017,-6.88406,131.46559,Inside MPA
Maluku Tenggara Barat,MTB1719,Wermatan,2017,-6.9748,131.57152,Inside MPA
Maluku Tenggara Barat,MTB1724,Adodo Fordata,2017,-6.99593,131.97687,Inside MPA
Maluku Tenggara Barat,MTB1720,Frinun,2017,-7.04774,131.55023,Inside MPA
Maluku Tenggara Barat,MTB1715,Tanjung Itain,2017,-7.07085,131.42567,Inside MPA
Maluku Tenggara Barat,MTB1723,Nukaah,2017,-7.0726,131.9879,Inside MPA
Maluku Tenggara Barat,MTB1721,Farnusan,2017,-7.08933,131.64229,Inside MPA
Maluku Tenggara Barat,MTB1726,Klaan,2017,-7.09456,131.87187,Inside MPA
Maluku Tenggara Barat,MTB1727,Tutun Watidal,2017,-7.12615,131.71886,Inside MPA
Maluku Tenggara Barat,MTB1711,Wulmali,2017,-7.27693,131.3853,Inside MPA
Maluku Tenggara Barat,MTB1729,Tanjung Botanio,2017,-7.34376,131.38847,Inside MPA
Maluku Tenggara Barat,MTB1710,Nuswotap,2017,-7.35961,131.20615,Inside MPA
Maluku Tenggara Barat,MTB1739,Pulau Nusnitu,2017,-7.47168,130.82549,Inside MPA
Maluku Tenggara Barat,5025,Pulau Nusnitu,2014,-7.47179,130.82538,Other
Forgotten_islands,5009,North Romang,2014,-7.49159,127.38171,Other
Forgotten_islands,5008,Pulau Nyata,2014,-7.511333333,127.2812222,Other
Forgotten_islands,5010,Pulau Laut,2014,-7.522416667,127.5507778,Other
Maluku Barat Daya,MBDE0910,Jerusu,2015,-7.525100242,127.4393056,Other
Maluku Barat Daya,MBDE0710,Romang 1,2015,-7.528850242,127.329,Other
Maluku Barat Daya,MBDE0810,Pulau Mitan,2015,-7.551592995,127.4334444,Other
Maluku Tenggara Barat,MTB1705,Sabal,2017,-7.56379,130.99383,Inside MPA
Forgotten_islands,5024,Pulau Dai,2014,-7.56798,129.71857,Other
Maluku Tenggara Barat,MTB1706,Pulau Sera,2017,-7.65194,131.01772,Inside MPA
Maluku Barat Daya,MBDE3010,Watuwei,2015,-7.658507246,130.0479722,Other
Forgotten_islands,5007,North Reong,2014,-7.66451,125.91559,Other
Forgotten_islands,5006,South Reong,2014,-7.679555556,125.91625,Other
Forgotten_islands,5005,Tanjung Nunukae,2014,-7.777666667,125.8576111,Other
Maluku Barat Daya,MBDE2510,Desa Wasarili,2015,-7.782449275,129.5157778,Other
Maluku Tenggara Barat,MTB1738,Karang Barasadi,2017,-7.78962,130.78778,Outside MPA
Maluku Tenggara Barat,5026,Karang Barasadi,2014,-7.78999,130.78792,Other
Maluku Barat Daya,MBDE0210,Wetar 2,2015,-7.859183575,125.7941944,Other
Maluku Barat Daya,MBDE0310,Wetar 3,2015,-7.867572464,125.7900556,Other
Maluku Tenggara Barat,MTB1701,Tanjung Nuskei,2017,-7.87708,131.05484,Inside MPA
Maluku Barat Daya,MBDE0110,Tg. Bapia,2015,-8.015631643,125.7991944,Other
Maluku Barat Daya,MBDE2610,Sea Mount,2015,-8.028492754,129.6613889,Other
Forgotten_islands,5023,Babar Seamount,2014,-8.03147,129.66139,Other
Maluku Tenggara Barat,MTB1708,Pulau Nustabun,2017,-8.03493,131.18871,Outside MPA
Maluku Tenggara Barat,MTB1731,Pulau Astubun,2017,-8.04008,131.27711,Outside MPA
Maluku Barat Daya,MBDE0510,Yalurna,2015,-8.052506039,127.1397778,Other
Maluku Tenggara Barat,MTB1730,Pulau Angwarmas,2017,-8.05308,131.09773,Outside MPA
Maluku Tenggara Barat,MTB1707,Pulau Matakus,2017,-8.05786,131.19284,Outside MPA
Maluku Tenggara Barat,MTB1735,New Selaru 1,2017,-8.07393,131.00043,Outside MPA
Maluku Barat Daya,MBDE0610,Tg. Madalahar 2,2015,-8.077797101,127.1461667,Other
Flores Timur,1061,,2017,-8.0826,122.8365,Inside MPA
Maluku Barat Daya,MBDE0410,Tg. Madalahar 1,2015,-8.082991546,127.1419444,Other
Flores Timur,1061,,2014,-8.083361111,122.8361111,Inside MPA
Flores Timur,1062,,2017,-8.09208,122.81924,Inside MPA
Flores Timur,1062,,2014,-8.093166667,122.8178333,Inside MPA
Maluku Barat Daya,MBDE1210,Liukety,2015,-8.094650966,127.8226944,Other
Maluku Barat Daya,MBDE2810,Masela 2,2015,-8.100567633,129.89125,Other
Maluku Barat Daya,MBDE1110,Moa 2,2015,-8.101873188,127.8507222,Other
Maluku Barat Daya,MBDE1010,Moa 1,2015,-8.1027343,127.8683889,Other
Forgotten_islands,5012,North Moa,2014,-8.102805556,127.7855833,Other
Maluku Barat Daya,MBDE2710,Masela 1,2015,-8.103338164,129.8797222,Other
Maluku Barat Daya,MBDE2910,Masela 3,2015,-8.105310386,129.87075,Other
Forgotten_islands,5013,Tanjung Yautu,2014,-8.110111111,127.7621944,Other
Forgotten_islands,5014,Tanjung Siota,2014,-8.129222222,127.9290833,Other
Maluku Barat Daya,MBDE1910,Luang Barat 1,2015,-8.130108696,128.6870833,Other
Maluku Barat Daya,MBDE2010,Luang Barat 2,2015,-8.131969807,128.7057222,Other
Maluku Barat Daya,MBDE1510,Tg. Tutukey,2015,-8.13421256,127.6828889,Other
Other,5000,Sarbete ,2014,-8.135611111,123.0129722,Other
Maluku Barat Daya,MBDE2110,Luang Barat 3,2015,-8.135768116,128.7342222,Other
Forgotten_islands,5011,West Moa,2014,-8.139027778,127.7841389,Other
Flores Timur,1063,,2014,-8.141027778,122.9785556,Inside MPA
Flores Timur,1063,,2017,-8.143,122.9783,Inside MPA
Maluku Barat Daya,MBDE1410,Tomra,2015,-8.147649758,127.6510278,Other
Flores Timur,1064,,2017,-8.1489,122.97764,Inside MPA
Flores Timur,1064,,2014,-8.149638889,122.9772778,Inside MPA
Flores Timur,1066,,2014,-8.149722222,123.0242778,Inside MPA
Flores Timur,1066,,2017,-8.1504,123.0248,Inside MPA
Flores Timur,1065,,2017,-8.15412,123.03688,Inside MPA
Flores Timur,1065,,2014,-8.154333333,123.037,Inside MPA
Alor,1004,,2017,-8.15557,124.79839,Outside MPA
Forgotten_islands,5020,Buffalo Reef,2014,-8.15586,128.55872,Other
Alor,1004,,2014,-8.156055556,124.7975,Outside MPA
Maluku Barat Daya,MBDE2210,Sermata 1,2015,-8.159344203,128.8721944,Other
Maluku Barat Daya,MBDE2310,Sermata 2,2015,-8.159455314,128.8759722,Other
Maluku Barat Daya,MBDE2410,Sermata 3,2015,-8.159559179,128.8591111,Other
Maluku Barat Daya,MBDE1310,Nuwewang,2015,-8.162809179,127.6320556,Other
Maluku Barat Daya,MBDE1610,Amortaun,2015,-8.165503623,128.3820833,Other
Alor,1005,,2017,-8.16575,124.85387,Outside MPA
Alor,1005,,2014,-8.165983333,124.8538889,Outside MPA
Alor,1007,,2014,-8.168841667,125.1072,Outside MPA
Alor,1007,,2017,-8.16979,125.10852,Outside MPA
Alor,1002,,2014,-8.17138,124.43176,Inside MPA
Alor,1006,,2017,-8.172,125.1104,Outside MPA
Alor,1002,,2017,-8.17232,124.43197,Inside MPA
Alor,1006,,2014,-8.172472222,125.1105,Outside MPA
Alor,1032,,2017,-8.1737,124.0496,Inside MPA
Alor,1032,,2014,-8.174972222,124.0491389,Inside MPA
Alor,1003,,2017,-8.178783333,124.4276517,Inside MPA
Alor,1003,,2014,-8.179263889,124.4273444,Inside MPA
Forgotten_islands,5021,Pulau Kelapa,2014,-8.18116,128.79926,Other
Alor,1026,,2017,-8.1882,124.2484,Inside MPA
Forgotten_islands,5017,Amortaun,2014,-8.188444444,128.3834722,Other
Alor,1026,,2014,-8.189444444,124.2471111,Inside MPA
Alor,1027,,2017,-8.1928,124.2445,Inside MPA
Flores Timur,1058,,2017,-8.1951,122.82,Inside MPA
Alor,1027,,2014,-8.195366667,124.2426,Inside MPA
Flores Timur,1058,,2014,-8.195777778,122.8199167,Inside MPA
Forgotten_islands,5022,Tanjung Wahar,2014,-8.19802,128.82503,Other
Alor,1000,,2017,-8.19842,124.37156,Inside MPA
Alor,1000,,2014,-8.19852,124.37214,Inside MPA
Forgotten_islands,5016,Tanjung Ruswawan,2014,-8.200222222,128.1920556,Other
Forgotten_islands,5015,NW Lakor,2014,-8.205694444,128.0945,Other
Alor,1008,,2017,-8.20989,125.12716,Outside MPA
Alor,1008,,2014,-8.210166667,125.1268056,Outside MPA
Maluku Tenggara Barat,MTB1736,New Selaru 2,2017,-8.21352,130.87151,Outside MPA
Alor,1001,,2017,-8.215066667,124.3793333,Inside MPA
Alor,1001,,2014,-8.2152,124.37914,Inside MPA
Alor,1031,,2017,-8.2205,124.0801,Inside MPA
Alor,1031,,2014,-8.220638889,124.0820278,Inside MPA
Alor,5004,Pulau Ternate (The Babylon),2014,-8.222388889,124.36208,Inside MPA
Alor,1009,,2014,-8.222480556,125.1367222,Outside MPA
Alor,1009,,2017,-8.22272,125.13745,Outside MPA
Alor,1030,,2017,-8.2231,124.0934,Inside MPA
Alor,1030,,2014,-8.223444444,124.0936667,Inside MPA
Flores Timur,1060,,2014,-8.228666667,122.7383056,Inside MPA
Flores Timur,1060,,2017,-8.2294,122.7376,Inside MPA
Flores Timur,1059,,2017,-8.23179,122.74635,Inside MPA
Flores Timur,1068,,2017,-8.2318,123.1539,Inside MPA
Flores Timur,1068,,2014,-8.232361111,123.1546944,Inside MPA
Flores Timur,1059,,2014,-8.232666667,122.7448611,Inside MPA
Flores Timur,1067,,2017,-8.23531,123.16505,Inside MPA
Flores Timur,1067,,2014,-8.235444444,123.1659444,Inside MPA
Other,5001,Kroko,2014,-8.239083333,123.3350833,Other
Flores Timur,1069,,2014,-8.240333333,123.1321667,Inside MPA
Alor,1010,,2017,-8.2411,125.14184,Outside MPA
Flores Timur,1069,,2017,-8.24114,123.13121,Inside MPA
Alor,1010,,2014,-8.242055556,125.142,Outside MPA
Maluku Tenggara Barat,MTB1737,Pulau Ariama,2017,-8.24396,130.70871,Outside MPA
Flores Timur,1070,,2017,-8.2469,123.1213,Inside MPA
Flores Timur,1070,,2014,-8.24725,123.1211944,Inside MPA
Maluku Barat Daya,MBDE1710,Grouper Fate,2015,-8.252237923,128.4137778,Other
Alor,1011,,2017,-8.2527,125.1426,Outside MPA
Alor,1011,,2014,-8.253308333,125.1421444,Outside MPA
Alor,1025,,2017,-8.26916,124.29948,Inside MPA
Alor,1025,,2014,-8.269777778,124.2997444,Inside MPA
Flores Timur,1074,,2017,-8.271,123.0167,Outside MPA
Flores Timur,1074,,2014,-8.271166667,123.0161667,Outside MPA
Alor,1012,,2014,-8.271444444,125.136,Outside MPA
Flores Timur,1073,,2017,-8.2724,123.0154,Outside MPA
Flores Timur,1073,,2014,-8.272416667,123.0154444,Outside MPA
Alor,1012,,2017,-8.27256,125.13499,Outside MPA
Alor,1028,,2014,-8.27325,124.18475,Inside MPA
Alor,1028,,2017,-8.27385,124.18344,Inside MPA
Alor,1024,,2017,-8.2769,124.3028,Inside MPA
Alor,1024,,2014,-8.277305556,124.3028889,Inside MPA
Alor,1029,,2017,-8.27925,124.17989,Inside MPA
Alor,1029,,2014,-8.279333333,124.1797222,Inside MPA
Flores Timur,1072,,2014,-8.280722222,123.0713611,Outside MPA
Flores Timur,1072,,2017,-8.2815,123.0693,Outside MPA
Alor,5003,Pulau Pura (The Boardroom),2014,-8.28231,124.3264,Inside MPA
Flores Timur,1071,,2014,-8.28675,123.0610833,Outside MPA
Forgotten_islands,5018,Grouper Fate ,2014,-8.28925,128.4139167,Other
Flores Timur,1057,,2017,-8.2956,122.8102,Inside MPA
Flores Timur,1056,,2014,-8.296444444,122.8094167,Inside MPA
Flores Timur,1056,,2017,-8.29695,122.80951,Inside MPA
Flores Timur,1057,,2014,-8.297,122.8146667,Inside MPA
Maluku Barat Daya,MBDE1810,Jagotutun (Magic Corner),2015,-8.30563285,128.5207778,Other
Alor,1013,,2014,-8.309444444,125.1340028,Outside MPA
Alor,1013,,2017,-8.30948,125.13422,Outside MPA
Alor,5002,Clown Fish Valley,2014,-8.31018,124.3696111,Inside MPA
Alor,1022,,2017,-8.32421,124.32973,Inside MPA
Alor,1022,,2014,-8.324277778,124.3284167,Inside MPA
Alor,1023,,2014,-8.324427778,124.3377139,Inside MPA
Alor,1023,,2017,-8.3245,124.3379,Inside MPA
Alor,1034,,2014,-8.325277778,124.0108333,Inside MPA
Alor,1034,,2017,-8.32564,124.01027,Inside MPA
Alor,1015,,2014,-8.328436111,125.1332167,Outside MPA
Alor,1033,,2014,-8.328666667,124.0022778,Inside MPA
Alor,1015,,2017,-8.32875,125.13309,Outside MPA
Alor,1033,,2017,-8.32932,124.00117,Inside MPA
Alor,1014,,2017,-8.337,125.12587,Outside MPA
Alor,1014,,2014,-8.338694444,125.12475,Outside MPA
Flores Timur,1055,,2017,-8.3424,122.7729,Inside MPA
Flores Timur,1055,,2014,-8.343,122.7736389,Inside MPA
Forgotten_islands,5019,Jagotutun (Magic Corner),2014,-8.347527778,128.5199444,Other
Flores Timur,1043,,2017,-8.3494,122.972,Outside MPA
Flores Timur,1043,,2014,-8.350388889,122.9712222,Outside MPA
Flores Timur,1042,,2017,-8.3531,122.9666,Outside MPA
Flores Timur,1042,,2014,-8.353222222,122.96575,Outside MPA
Alor,1017,,2014,-8.355372222,125.0370167,Outside MPA
Alor,1017,,2017,-8.35552,125.03056,Outside MPA
Alor,1016,,2014,-8.356277778,125.0584444,Outside MPA
Flores Timur,1054,,2014,-8.356611111,122.7668056,Inside MPA
Flores Timur,1054,,2017,-8.35662,122.76684,Inside MPA
Alor,1016,,2017,-8.35687,125.05763,Outside MPA
Alor,1036,,2017,-8.3625,123.8985,Inside MPA
Alor,1036,,2014,-8.363611111,123.8987778,Inside MPA
Alor,1035,,2014,-8.371416667,123.8988333,Inside MPA
Alor,1035,,2017,-8.3736,123.9034,Inside MPA
Alor,1018,,2017,-8.38716,124.83009,Outside MPA
Alor,1019,,2017,-8.3872,124.8301,Outside MPA
Alor,1018,,2014,-8.387361111,124.8308611,Outside MPA
Alor,1019,,2014,-8.391016667,124.8199389,Outside MPA
Alor,1020,,2017,-8.39757,124.3403,Inside MPA
Alor,1021,,2017,-8.3976,124.3403,Inside MPA
Manggarai Barat,TNK01,Pulau Sebolo,2016,-8.399208,119.804468,Outside MPA
Alor,1020,,2014,-8.401916667,124.3405833,Inside MPA
Alor,1021,,2014,-8.406566667,124.3389278,Inside MPA
Alor,1039,,2014,-8.412333333,123.8292778,Inside MPA
Alor,1039,,2017,-8.4129,123.8295,Inside MPA
Alor,1040,,2014,-8.413083333,123.8210556,Inside MPA
Alor,1040,,2017,-8.4138,123.818,Inside MPA
Alor,1038,,2014,-8.424416667,123.8836667,Inside MPA
Alor,1038,,2017,-8.42522,123.88976,Inside MPA
Flores Timur,1047,,2017,-8.43215,122.81945,Outside MPA
Alor,1041,,2017,-8.43278,123.91856,Inside MPA
Manggarai Barat,TNK02,Batu Gosok,2016,-8.433071,119.856278,Outside MPA
Alor,1041,,2014,-8.433361111,123.9173333,Inside MPA
Flores Timur,1047,,2014,-8.433388889,122.8164444,Outside MPA
Alor,1037,,2014,-8.437583333,123.8757222,Inside MPA
Alor,1037,,2017,-8.4377,123.87495,Inside MPA
Flores Timur,1046,,2014,-8.439972222,122.8333611,Outside MPA
Flores Timur,1045,,2014,-8.44375,122.967,Inside MPA
Flores Timur,1052,,2014,-8.444861111,123.1666389,Inside MPA
Flores Timur,1044,,2017,-8.4459,122.9634,Inside MPA
Flores Timur,1044,,2014,-8.446388889,122.9633611,Inside MPA
Flores Timur,1052,,2017,-8.44885,123.16284,Inside MPA
Flores Timur,1053,,2017,-8.4582,123.1501,Inside MPA
Flores Timur,1053,,2014,-8.458333333,123.1497778,Inside MPA
Manggarai Barat,TNK05,China Shop/ Pulau Gili Lawa Laut,2016,-8.459329,119.565588,Inside MPA
Manggarai Barat,TNK04,Pulau Sebayur,2016,-8.508833,119.703103,Outside MPA
Manggarai Barat,TNK06,Pulau Tatawa Besar,2016,-8.515128,119.643942,Inside MPA
Manggarai Barat,TNK03,Pulau Pungu,2016,-8.521776,119.785341,Outside MPA
Manggarai Barat,TNK08,Karang Makasar,2016,-8.524255,119.585956,Inside MPA
Flores Timur,1050,,2014,-8.538527778,122.9696944,Inside MPA
Flores Timur,1050,,2017,-8.54035,122.95956,Inside MPA
Flores Timur,1051,,2014,-8.545694444,122.9636944,Inside MPA
Flores Timur,1051,,2017,-8.5532,122.9599,Inside MPA
Manggarai Barat,TNK07,Pulau Punya,2016,-8.579236,119.698763,Inside MPA
Flores Timur,1049,,2017,-8.59222,122.87589,Inside MPA
Flores Timur,1049,,2014,-8.594138889,122.8793333,Inside MPA
Flores Timur,1048,,2014,-8.607888889,122.8820833,Inside MPA
Flores Timur,1048,,2017,-8.609,122.8826,Inside MPA
Manggarai Barat,TNK21,Pulau Kambing,2016,-8.627253,119.706309,Inside MPA
Manggarai Barat,TNK20,Pulau Bero/Depan Kerora,2016,-8.676233,119.773427,Inside MPA
Manggarai Barat,TNK13,Letuho,2016,-8.687798,119.403215,Inside MPA
Manggarai Barat,TNK19,Loh Baru,2016,-8.732706,119.700221,Inside MPA
Manggarai Barat,TNK12,Torolongkoe,2016,-8.738895,119.379842,Inside MPA
Manggarai Barat,TNK11,Depan Germany Flag,2016,-8.754962,119.42887,Inside MPA
Manggarai Barat,TNK18,Waenepa/Budidaya Mutiara,2016,-8.759539,119.798213,Outside MPA
Manggarai Barat,TNK16,Pulau Gilimotang,2016,-8.794492,119.7881,Inside MPA
Manggarai Barat,TNK17,Flores Bagian Selatan/Kakap Merah,2016,-8.800353,119.834053,Outside MPA
Manggarai Barat,TNK15,Yellow Wall,2016,-8.802472,119.67402,Inside MPA